[{"status": "submitted", "service_name": "Sidewalk", "service_code": "56e92a0c601827803f000130", "description": "Trash", "updated_datetime": "2020-12-12T14:24:53-08:00", "address": "2871\u20132917 Camino del Rio N, San Diego", "lat": 32.77354167, "long": -117.13162217, "media_url": "http://san-diego.spotreporters.com/media/san_diego/report/photos/5fd54334646a2a1cc3a50a3f/report.jpg"}, {"status": "submitted", "service_name": "Illegal Dumping", "service_code": "5af2b7c78671e60d7a000058", "description": "Illegal Dumping - Box and Crate", "updated_datetime": "2020-12-12T14:24:31-08:00", "address": "5286 Coban St, San Diego", "lat": 32.69603292460804, "long": -117.0811787993806, "media_url": "http://san-diego.spotreporters.com/media/san_diego/report/photos/5fd5431e646a2a1cc3a50a33/report.jpg"}, {"status": "submitted", "service_name": "Sidewalk", "service_code": "56e92a0c601827803f000130", "description": "Trash", "updated_datetime": "2020-12-12T14:23:48-08:00", "address": "2871\u20132917 Camino del Rio N, San Diego", "lat": 32.77357167, "long": -117.13182783, "media_url": "http://san-diego.spotreporters.com/media/san_diego/report/photos/5fd542f3646a2a1cc3a50a27/report.jpg"}, {"status": "submitted", "service_name": "Curb", "service_code": "56e92b32601827803f0001a6", "description": "Visibility - red curb needed. Cars are parking in the crosswalk area and blocking views of oncoming traffic. All four corners of the intersection need to be addressed.", "updated_datetime": "2020-12-12T14:23:25-08:00", "address": "4502 Campus Ave, San Diego, CA 92116, USA", "lat": 32.75934982, "long": -117.14886475, "media_url": "http://san-diego.spotreporters.com/media/san_diego/report/photos/5fd542dd646a2a1cc3a50a1b/photo_20201212_142220.jpg"}, {"status": "submitted", "service_name": "Graffiti", "service_code": "56e92d5d601827803f00032e", "description": "Graffiti on sign", "updated_datetime": "2020-12-12T14:23:18-08:00", "address": "5290 Coban St, San Diego", "lat": 32.69601440429688, "long": -117.0810945612537, "media_url": "http://san-diego.spotreporters.com/media/san_diego/report/photos/5fd542d6646a2a1cc3a50a0e/report.jpg"}, {"service_request_id": "03172020", "status": "open", "service_name": "Dead Animal", "service_code": "56e92d0c601827803f000305", "description": "Kumeyaay mass grave under the defunct Arizona Landfill, which also took out part of the threatened flora and fauna in violation of original City charters, ordinances, etc. please exhume the cultural, sacred, ancestral remains. This is the result of our parent's sins.", "requested_datetime": "2020-12-12T14:23:08-08:00", "updated_datetime": "2020-12-12T14:23:15-08:00", "address": "2568 PERSHING DR, San Diego, CA 92101, USA", "lat": 32.73404090607244, "long": -117.1392680952345}, {"service_request_id": "03172013", "status": "open", "service_name": "Timing", "service_code": "58cb240921ecf31582000001", "description": "These lights on Carmel valley go thru so many cycles before this left lane turn turns green. Soooooo irritating.", "requested_datetime": "2020-12-12T14:19:13-08:00", "updated_datetime": "2020-12-12T14:23:09-08:00", "address": "12700\u201312738 Carmel Country Rd", "lat": 32.95296549999999, "long": -117.2289616}, {"status": "submitted", "service_name": "Traffic Sign", "service_code": "56e92bcd601827803f0002af", "description": "Graffiti on sign", "updated_datetime": "2020-12-12T14:22:47-08:00", "address": "5290 Coban St, San Diego", "lat": 32.69600438422774, "long": -117.0810948127108, "media_url": "http://san-diego.spotreporters.com/media/san_diego/report/photos/5fd542b6646a2a1cc3a509f6/report.jpg"}, {"service_request_id": "03172017", "status": "open", "service_name": "Parking Issue", "service_code": "56e92c79601827803f0002d2", "description": "Has been sitting in the same spot for over two months. Expired registration June 2019. Windows have been down even during a rain.", "requested_datetime": "2020-12-12T14:22:08-08:00", "updated_datetime": "2020-12-12T14:22:17-08:00", "address": "3501\u20133699 Felton St", "lat": 32.74306333, "long": -117.12175}, {"service_request_id": "03172016", "status": "open", "service_name": "Sidewalk", "service_code": "56e92a0c601827803f000130", "description": "Trash along sidewalk from 2931-3111 Camino del Rio N", "requested_datetime": "2020-12-12T14:22:03-08:00", "updated_datetime": "2020-12-12T14:22:11-08:00", "address": "2931 Camino Del Rio N", "lat": 32.77323667, "long": -117.1320195, "media_url": "http://san-diego.spotreporters.com/media/san_diego/report/photos/5fd54284646a2a1cc3a509dd/report.jpg"}, {"service_request_id": "03172015", "status": "open", "service_name": "Other", "service_code": "56e92de9601827803f0003aa", "description": "F250 with attached trailer, commercial vehicle unmoved for weeks", "requested_datetime": "2020-12-12T14:20:28-08:00", "updated_datetime": "2020-12-12T14:21:20-08:00", "address": "4227 Orchard Ave", "lat": 32.73289167, "long": -117.24306333, "media_url": "http://san-diego.spotreporters.com/media/san_diego/report/photos/5fd54225646a2a1cc3a509d1/report.jpg"}, {"service_request_id": "03172014", "status": "open", "service_name": "Other", "service_code": "56e92de9601827803f0003aa", "description": "Unmoved covered truck, four weeks now, multiple submissions", "requested_datetime": "2020-12-12T14:19:48-08:00", "updated_datetime": "2020-12-12T14:20:37-08:00", "address": "4259 Orchard Ave", "lat": 32.73315832999999, "long": -117.2435, "media_url": "http://san-diego.spotreporters.com/media/san_diego/report/photos/5fd541fb646a2a1cc3a509c5/report.jpg"}, {"service_request_id": "03172007", "status": "open", "service_name": "Tree Maintenance", "service_code": "56e92ddc601827803f000387", "description": "Pine tree branches need to be trimmed", "requested_datetime": "2020-12-12T14:16:40-08:00", "updated_datetime": "2020-12-12T14:19:45-08:00", "address": "3111 Camino Del Rio N", "lat": 32.77483667, "long": -117.12744167, "media_url": "http://san-diego.spotreporters.com/media/san_diego/report/photos/5fd54141646a2a1cc3a5096e/report.jpg"}, {"service_request_id": "03172011", "status": "open", "service_name": "Other", "service_code": "56e92de9601827803f0003aa", "description": "Unmoved for four weeks", "requested_datetime": "2020-12-12T14:18:18-08:00", "updated_datetime": "2020-12-12T14:19:12-08:00", "address": "4754 Bermuda Ave", "lat": 32.73670499999999, "long": -117.25325833, "media_url": "http://san-diego.spotreporters.com/media/san_diego/report/photos/5fd541a0646a2a1cc3a509a1/report.jpg"}, {"service_request_id": "03172012", "status": "open", "service_name": "Illegal Dumping", "service_code": "5af2b7c78671e60d7a000058", "description": "2 Beds and a dresser in alley", "requested_datetime": "2020-12-12T14:18:24-08:00", "updated_datetime": "2020-12-12T14:18:30-08:00", "address": "2872 Franklin Ave, San Diego, Ca 92113, Usa", "lat": 32.70274649, "long": -117.13235904, "media_url": "http://san-diego.spotreporters.com/media/san_diego/report/photos/5fd541a0646a2a1cc3a509a7/photo_20201212_141223.jpg"}, {"service_request_id": "03172009", "status": "open", "service_name": "Illegal Dumping", "service_code": "5af2b7c78671e60d7a000058", "description": "Alley", "requested_datetime": "2020-12-12T14:17:00-08:00", "updated_datetime": "2020-12-12T14:17:06-08:00", "address": "3321 42nd St, San Diego, Ca 92105, Usa", "lat": 32.7407863, "long": -117.1042756, "media_url": "http://san-diego.spotreporters.com/media/san_diego/report/photos/5fd54155646a2a1cc3a50986/photo_20201212_141611.jpg"}, {"service_request_id": "03157851", "status": "open", "service_name": "Parking Issue", "service_code": "56e92c79601827803f0002d2", "description": "July 2020 tags, abandoned vehicle, looks to have an old ticket on it.", "requested_datetime": "2020-11-29T07:08:47-08:00", "updated_datetime": "2020-12-12T14:16:04-08:00", "address": "1471 Felspar St, San Diego, CA 92109, USA", "lat": 32.80012, "long": -117.24332}, {"service_request_id": "03172004", "status": "open", "service_name": "Illegal Dumping", "service_code": "5af2b7c78671e60d7a000058", "description": "All items are along the alley", "requested_datetime": "2020-12-12T14:15:22-08:00", "updated_datetime": "2020-12-12T14:15:28-08:00", "address": "3321 42nd St, San Diego, Ca 92105, Usa", "lat": 32.7407294, "long": -117.1042788}, {"service_request_id": "03172001", "status": "open", "service_name": "Parking Issue", "service_code": "56e92c79601827803f0002d2", "description": "Requesting parking enforcement presence more often in this area. Many vehicles taking advantage of the 72 hour rule because their is no enforcement.", "requested_datetime": "2020-12-12T14:14:06-08:00", "updated_datetime": "2020-12-12T14:14:15-08:00", "address": "1430 Northrim Ct", "lat": 32.77095976990751, "long": -117.1750626045563}, {"service_request_id": "03140185", "status": "open", "service_name": "Parking Issue", "service_code": "56e92c79601827803f0002d2", "description": "Lincoln towncar # 5FNW561 parked on  blocks for 72 hrs (as of 11/10/20)", "requested_datetime": "2020-11-10T09:49:34-08:00", "updated_datetime": "2020-12-12T14:14:04-08:00", "address": "3212 45th St, San Diego, CA 92105, USA", "lat": 32.73963, "long": -117.09778}, {"service_request_id": "03171997", "status": "open", "service_name": "Curb", "service_code": "56e92b32601827803f0001a6", "description": "So much litter on the side of the freeway on 56East starting from Interstate  15", "requested_datetime": "2020-12-12T14:08:20-08:00", "updated_datetime": "2020-12-12T14:11:52-08:00", "address": "Ca 56 W", "lat": 32.95808472771248, "long": -117.1849026818196}, {"service_request_id": "03171998", "status": "open", "service_name": "Encampment", "service_code": "5daf7c71e896c7a29fad56e1", "description": "This area of the Kumeyaay chief Manuel Hatam is serving no public purpose but is being illegally occupied by a few race supremacists who have it fenced and chained off. Needed for public right of way here.", "requested_datetime": "2020-12-12T14:10:25-08:00", "updated_datetime": "2020-12-12T14:10:32-08:00", "address": "Pershing Dr", "lat": 32.72243705282359, "long": -117.1425172287112}, {"service_request_id": "03171990", "status": "open", "service_name": "Flashing Red", "service_code": "56e929ba601827803f0000c1", "description": "Traffic signal on flash at Camino Del Norte and World Trade", "requested_datetime": "2020-12-12T14:01:55-08:00", "updated_datetime": "2020-12-12T14:08:15-08:00", "address": "Camino Del Norte", "lat": 32.98778108634622, "long": -117.0673009259364}, {"service_request_id": "03171980", "status": "open", "service_name": "Sidewalk", "service_code": "56e92a0c601827803f000130", "description": "Uneven sidewalk. Old lady tripped and fell on it.  H65 Pgd 12/12/20 Ref WO #20300126455.", "requested_datetime": "2020-12-12T13:48:55-08:00", "updated_datetime": "2020-12-12T14:08:09-08:00", "address": "443\u2013499 Athey Ave", "lat": 32.5654380568866, "long": -117.0541238030869, "media_url": "http://san-diego.spotreporters.com/media/san_diego/report/photos/5fd53abe646a2a1cc3a50879/report.jpg"}, {"service_request_id": "03145000", "status": "open", "service_name": "Parking Issue", "service_code": "56e92c79601827803f0002d2", "requested_datetime": "2020-11-15T12:28:37-08:00", "updated_datetime": "2020-12-12T14:06:05-08:00", "address": "4700\u20134750 Fanuel St", "lat": 32.8026651345107, "long": -117.2476512929738}, {"service_request_id": "03171988", "status": "open", "service_name": "Graffiti", "service_code": "56e92d5d601827803f00032e", "description": "415 crew graffiti", "requested_datetime": "2020-12-12T14:01:30-08:00", "updated_datetime": "2020-12-12T14:03:32-08:00", "address": "11224\u201311236 Flintkote Ave", "lat": 32.90696473500768, "long": -117.2328651650951}, {"service_request_id": "03171971", "status": "open", "service_name": "Sidewalk", "service_code": "56e92a0c601827803f000130", "description": "Trash can knocked over into University", "requested_datetime": "2020-12-12T13:28:58-08:00", "updated_datetime": "2020-12-12T14:03:15-08:00", "address": "1065 University Ave", "lat": 32.74839707690873, "long": -117.1537933988288}, {"service_request_id": "02663847", "status": "open", "service_name": "Sidewalk", "service_code": "56e92a0c601827803f000130", "description": "Metal plate not screwed down it's a tripping hazard", "requested_datetime": "2019-07-23T07:54:23-07:00", "updated_datetime": "2020-12-12T14:03:02-08:00", "address": "1201 University Ave, San Diego, Ca 92103, Usa", "lat": 32.748335, "long": -117.153381, "media_url": "http://san-diego.spotreporters.com/media/san_diego/report/photos/5d371f8f646a67bb95ecf0c2/photo_20190723_075235.jpg"}, {"service_request_id": "03171987", "status": "open", "service_name": "Illegal Dumping", "service_code": "5af2b7c78671e60d7a000058", "requested_datetime": "2020-12-12T13:59:51-08:00", "updated_datetime": "2020-12-12T13:59:57-08:00", "address": "3980 Mission Blvd, San Diego, Ca 92109, Usa", "lat": 32.7895854, "long": -117.2534267, "media_url": "http://san-diego.spotreporters.com/media/san_diego/report/photos/5fd53d50646a2a1cc3a508bb/photo_20201212_135925.jpg"}, {"service_request_id": "03161251", "status": "open", "service_name": "Parking Issue", "service_code": "56e92c79601827803f0002d2", "description": "Abandoned vehicle. This car has flat tires and has been parked here is the exact same spot for a month.", "requested_datetime": "2020-12-02T10:09:50-08:00", "updated_datetime": "2020-12-12T13:56:04-08:00", "address": "4710 Cass St", "lat": 32.80046333, "long": -117.252845}, {"service_request_id": "03167246", "status": "open", "service_name": "Parking Issue", "service_code": "56e92c79601827803f0002d2", "requested_datetime": "2020-12-08T08:35:51-08:00", "updated_datetime": "2020-12-12T13:55:04-08:00", "address": "4465 Thorn St, San Diego, Ca 92105, Usa", "lat": 32.74017, "long": -117.09851}, {"service_request_id": "03171941", "status": "open", "service_name": "Other", "service_code": "56e92de9601827803f0003aa", "description": "Hole in crosswalk on Rosecrans at Wimbledon road was recently fixed but cover is now off and on the sidewalk", "requested_datetime": "2020-12-12T12:53:05-08:00", "updated_datetime": "2020-12-12T13:53:10-08:00", "address": "2380 Rosecrans St", "lat": 32.73686382329875, "long": -117.2190427284145, "media_url": "http://san-diego.spotreporters.com/media/san_diego/report/photos/5fd52dab646a2a1cc3a506c8/report.jpg"}, {"service_request_id": "03171983", "status": "open", "service_name": "Parking Issue", "service_code": "56e92c79601827803f0002d2", "description": "Truck parked in 2 hour parking for 4 hours so far", "requested_datetime": "2020-12-12T13:52:15-08:00", "updated_datetime": "2020-12-12T13:52:25-08:00", "address": "1851 San Diego Ave", "lat": 32.74459838867188, "long": -117.1852077090487}, {"service_request_id": "03171981", "status": "open", "service_name": "Parking Issue", "service_code": "56e92c79601827803f0002d2", "description": "Parking for 2 days in 2 hour zone", "requested_datetime": "2020-12-12T13:50:30-08:00", "updated_datetime": "2020-12-12T13:50:39-08:00", "address": "1851 San Diego Ave", "lat": 32.7445068359375, "long": -117.1852201073891}, {"service_request_id": "03171961", "status": "open", "service_name": "Timing", "service_code": "58cb240921ecf31582000001", "description": "Left turn signal going north on rosecrans intermittently not working", "requested_datetime": "2020-12-12T13:11:46-08:00", "updated_datetime": "2020-12-12T13:49:16-08:00", "address": "ROSECRANS ST & SPORTS ARENA BL", "lat": 32.75069160855632, "long": -117.2052400187749, "media_url": "http://san-diego.spotreporters.com/media/san_diego/report/photos/5fd53209646a2a1cc3a507b8/report.jpg"}, {"service_request_id": "03168661", "status": "open", "service_name": "Parking Issue", "service_code": "56e92c79601827803f0002d2", "requested_datetime": "2020-12-09T10:47:54-08:00", "updated_datetime": "2020-12-12T13:47:05-08:00", "address": "956 Felspar St", "lat": 32.79818725585938, "long": -117.2529381573818}, {"service_request_id": "03159602", "status": "open", "service_name": "Parking Issue", "service_code": "56e92c79601827803f0002d2", "description": "Car has been parked and not moved in 3 weeks", "requested_datetime": "2020-11-30T21:43:48-08:00", "updated_datetime": "2020-12-12T13:44:04-08:00", "address": "4656 Mission Blvd, San Diego, CA 92109, USA", "lat": 32.79891, "long": -117.2563}, {"service_request_id": "03121067", "status": "open", "service_name": "Parking Issue", "service_code": "56e92c79601827803f0002d2", "description": "The trailer has not moved in months and is not operational with flat tires", "requested_datetime": "2020-10-22T11:53:13-07:00", "updated_datetime": "2020-12-12T13:41:04-08:00", "address": "3214 44th St, San Diego, CA 92105, USA", "lat": 32.73951, "long": -117.10002}, {"service_request_id": "03171974", "status": "open", "service_name": "Missed Collection", "service_code": "5af2b7f48671e60d7a00007b", "description": "Hi there,\nOur recycling bin has been on the curbside for 3 weeks, we've been missed 6 weeks collecting, please send someone to fix it ASAP, thanks", "requested_datetime": "2020-12-12T13:36:14-08:00", "updated_datetime": "2020-12-12T13:36:19-08:00", "address": "4118 VAN DYKE AV, San Diego, CA 92105, USA", "lat": 32.751813, "long": -117.1035607, "media_url": "http://san-diego.spotreporters.com/media/san_diego/report/photos/5fd537c6646a2a1cc3a50857/report.jpg"}, {"service_request_id": "03171969", "status": "open", "service_name": "Light Out", "service_code": "56e929e0601827803f0000e7", "description": "Last night we had 2 parties in this block! No light! Many students on the street!!!", "requested_datetime": "2020-12-12T13:22:33-08:00", "updated_datetime": "2020-12-12T13:30:41-08:00", "address": "5611 Dorothy Way", "lat": 32.7683592355184, "long": -117.0745426790016}, {"service_request_id": "02992849", "status": "open", "service_name": "Light Out", "service_code": "56e929e0601827803f0000e7", "description": "Light out Again!!!!!!", "requested_datetime": "2020-06-24T21:03:33-07:00", "updated_datetime": "2020-12-12T13:29:40-08:00", "address": "5611 Dorothy Way", "lat": 32.76842411144894, "long": -117.0745392424213}, {"service_request_id": "03171965", "status": "open", "service_name": "Other", "service_code": "56e92de9601827803f0003aa", "description": "Encampment and sidewalk cleaning", "requested_datetime": "2020-12-12T13:19:52-08:00", "updated_datetime": "2020-12-12T13:29:01-08:00", "address": "900\u2013994 9th Ave", "lat": 32.71485155228253, "long": -117.1565143839252}, {"service_request_id": "03171968", "status": "open", "service_name": "Graffiti", "service_code": "56e92d5d601827803f00032e", "requested_datetime": "2020-12-12T13:22:23-08:00", "updated_datetime": "2020-12-12T13:27:09-08:00", "address": "281 W SPRUCE ST, San Diego, CA 92103, USA", "lat": 32.7387956, "long": -117.1654183, "media_url": "http://san-diego.spotreporters.com/media/san_diego/report/photos/5fd53486646a2a1cc3a5081f/photo_20201212_132142.jpg"}, {"service_request_id": "03171960", "status": "open", "service_name": "Pothole", "service_code": "56e92b94601827803f000269", "description": "Pot holes all over the road. They need to be repaired.", "requested_datetime": "2020-12-12T13:08:56-08:00", "updated_datetime": "2020-12-12T13:26:07-08:00", "address": "2356 TORREY PINES RD, San Diego, CA 92037, USA", "lat": 32.85036231436889, "long": -117.2520948134986}, {"service_request_id": "03159907", "status": "open", "service_name": "Parking Issue", "service_code": "56e92c79601827803f0002d2", "description": "Car has been parked in front of business for 2 weeks. Has not moved. Just abandoned", "requested_datetime": "2020-12-01T08:55:19-08:00", "updated_datetime": "2020-12-12T13:25:03-08:00", "address": "3141 Fairmount Ave, San Diego, CA 92105, USA", "lat": 32.73884, "long": -117.10088}, {"service_request_id": "03171970", "status": "open", "service_name": "Parking Issue", "service_code": "56e92c79601827803f0002d2", "description": "Abandon vehicles", "requested_datetime": "2020-12-12T13:24:28-08:00", "updated_datetime": "2020-12-12T13:24:37-08:00", "address": "1738 Garnet Ave, San Diego, Ca 92109, Usa", "lat": 32.80031, "long": -117.23888}, {"service_request_id": "03171954", "status": "open", "service_name": "Pothole", "service_code": "56e92b94601827803f000269", "description": "Pothole", "requested_datetime": "2020-12-12T13:01:30-08:00", "updated_datetime": "2020-12-12T13:23:28-08:00", "address": "3520 ELSINORE PL, San Diego, CA 92117, USA", "lat": 32.8130845, "long": -117.2095421, "media_url": "http://san-diego.spotreporters.com/media/san_diego/report/photos/5fd52fa1646a2a1cc3a5076e/photo_20201212_130119.jpg"}, {"service_request_id": "03171966", "status": "open", "service_name": "Encampment", "service_code": "5daf7c71e896c7a29fad56e1", "description": "There is a ton of trash and multiple people in and out of this camp all the time. Most of the time they are arguing and yelling, I believe they may have had a fire going a couple nights burning trash.", "requested_datetime": "2020-12-12T13:19:56-08:00", "updated_datetime": "2020-12-12T13:20:04-08:00", "address": "2026 Kearney Ave", "lat": 32.70095784138109, "long": -117.1412957528439}, {"service_request_id": "03171963", "status": "open", "service_name": "Parking Issue", "service_code": "56e92c79601827803f0002d2", "requested_datetime": "2020-12-12T13:16:57-08:00", "updated_datetime": "2020-12-12T13:17:08-08:00", "address": "3982 Palm Ave, San Diego, Ca 92154, Usa", "lat": 32.58376, "long": -117.04918}, {"service_request_id": "03171962", "status": "open", "service_name": "Encampment", "service_code": "5daf7c71e896c7a29fad56e1", "description": "Blocking sidewalk", "requested_datetime": "2020-12-12T13:13:11-08:00", "updated_datetime": "2020-12-12T13:13:18-08:00", "address": "4442 Ingraham St, San Diego, Ca 92109, Usa", "lat": 32.7988735, "long": -117.2403832}]